[
    {"id": 1, "name": "Adirampattinam", "latitude": 10.210000, "longitude": 79.250000},
    {"id": 2, "name": "Ambasamudram", "latitude": 8.430000, "longitude": 77.290000},
    {"id": 3, "name": "Ambur", "latitude": 21.500000, "longitude": 78.450000},
    {"id": 4, "name": "Anaimalai Hills", "latitude": 10.240000, "longitude": 76.400000},
    {"id": 5, "name": "Arakkonam", "latitude": 13.050000, "longitude": 79.430000},
    {"id": 6, "name": "Arantangi", "latitude": 10.100000, "longitude": 79.020000},
    {"id": 7, "name": "Arcot", "latitude": 12.560000, "longitude": 79.240000},
    {"id": 8, "name": "Arni", "latitude": 12.400000, "longitude": 79.190000},
    {"id": 9, "name": "Aruppukkotai", "latitude": 9.310000, "longitude": 78.080000},
    {"id": 10, "name": "Attur", "latitude": 11.360000, "longitude": 78.390000},
    {"id": 11, "name": "Bodinayakkanur", "latitude": 10.010000, "longitude": 77.240000},
    {"id": 12, "name": "Calimere, Point", "latitude": 10.180000, "longitude": 79.520000},
    {"id": 13, "name": "Carnatic", "latitude": 12.000000, "longitude": 80.000000},
    {"id": 14, "name": "Chidambaram", "latitude": 11.240000, "longitude": 79.440000},
    {"id": 15, "name": "Chingleput", "latitude": 12.420000, "longitude": 80.010000},
    {"id": 16, "name": "Comorin, C.", "latitude": 8.040000, "longitude": 77.360000},
    {"id": 17, "name": "Coromandel Coast", "latitude": 12.000000, "longitude": 80.300000},
    {"id": 18, "name": "Devakottai", "latitude": 9.570000, "longitude": 78.530000},
    {"id": 19, "name": "Dhanushkodi", "latitude": 9.100000, "longitude": 79.280000},
    {"id": 20, "name": "Dharapuram", "latitude": 10.450000, "longitude": 77.340000},
    {"id": 21, "name": "Dharmapuri", "latitude": 12.080000, "longitude": 78.130000},
    {"id": 22, "name": "Dodabetta. Mt.", "latitude": 11.250000, "longitude": 76.460000},
    {"id": 23, "name": "Ennore", "latitude": 13.140000, "longitude": 80.220000},
    {"id": 24, "name": "Erode", "latitude": 11.200000, "longitude": 77.460000},
    {"id": 25, "name": "Fort St David", "latitude": 11.450000, "longitude": 79.500000},
    {"id": 26, "name": "Fort St George", "latitude": 13.040000, "longitude": 80.170000},
    {"id": 27, "name": "Gudiyatam", "latitude": 12.570000, "longitude": 78.550000},
    {"id": 28, "name": "Hospur", "latitude": 12.440000, "longitude": 77.520000},
    {"id": 29, "name": "Jalarpet", "latitude": 12.340000, "longitude": 78.370000},
    {"id": 30, "name": "Javadi hills", "latitude": 12.400000, "longitude": 78.400000},
    {"id": 31, "name": "Kanchipuram", "latitude": 12.500000, "longitude": 79.450000},
    {"id": 32, "name": "Kaveri R.", "latitude": 11.200000, "longitude": 77.500000},
    {"id": 33, "name": "Kayalpatnam", "latitude": 8.340000, "longitude": 78.100000},
    {"id": 34, "name": "Kilakarai", "latitude": 9.140000, "longitude": 78.500000},
    {"id": 35, "name": "Kodaikanal", "latitude": 10.130000, "longitude": 77.320000},
    {"id": 36, "name": "Krishnagiri", "latitude": 12.320000, "longitude": 78.160000},
    {"id": 37, "name": "Madurantakam", "latitude": 12.300000, "longitude": 79.560000},
    {"id": 38, "name": "Mahabalipuram", "latitude": 12.370000, "longitude": 80.140000},
    {"id": 39, "name": "Mannargudi", "latitude": 10.400000, "longitude": 79.290000},
    {"id": 40, "name": "Mayuram", "latitude": 11.060000, "longitude": 79.420000},
    {"id": 41, "name": "Mettupalaiyam", "latitude": 11.180000, "longitude": 76.590000},
    {"id": 42, "name": "Mettur Dam", "latitude": 11.520000, "longitude": 77.500000},
    {"id": 43, "name": "Nagarjunasagar Dam", "latitude": 16.500000, "longitude": 79.200000},
    {"id": 44, "name": "Namakkal", "latitude": 11.130000, "longitude": 78.130000},
    {"id": 45, "name": "Nanguneri", "latitude": 8.290000, "longitude": 77.440000},
    {"id": 46, "name": "Neiveli", "latitude": 10.310000, "longitude": 79.240000},
    {"id": 47, "name": "Pachaimalai Hills", "latitude": 11.150000, "longitude": 78.030000},
    {"id": 48, "name": "Padmanabhapuram", "latitude": 9.060000, "longitude": 76.050000},
    {"id": 49, "name": "Palayankottal", "latitude": 8.430000, "longitude": 77.460000},
    {"id": 50, "name": "Palladam", "latitude": 10.590000, "longitude": 77.020000},
    {"id": 51, "name": "Pallavaram", "latitude": 12.580000, "longitude": 80.130000},
    {"id": 52, "name": "Pallivasal", "latitude": 9.550000, "longitude": 77.000000},
    {"id": 53, "name": "Palni Hills", "latitude": 10.000000, "longitude": 77.000000},
    {"id": 54, "name": "Panruti", "latitude": 11.470000, "longitude": 79.350000},
    {"id": 55, "name": "Paramakkudi", "latitude": 9.310000, "longitude": 78.390000},
    {"id": 56, "name": "Pattukkottal", "latitude": 10.260000, "longitude": 79.220000},
    {"id": 57, "name": "Perambalur", "latitude": 11.140000, "longitude": 78.560000},
    {"id": 58, "name": "Periyakulam", "latitude": 10.070000, "longitude": 77.350000},
    {"id": 59, "name": "Pollachi", "latitude": 10.390000, "longitude": 77.030000},
    {"id": 60, "name": "Ponneri", "latitude": 13.020000, "longitude": 80.150000},
    {"id": 61, "name": "Porto Novo", "latitude": 11.030000, "longitude": 79.480000},
    {"id": 62, "name": "Pudukkottal", "latitude": 10.230000, "longitude": 78.520000},
    {"id": 63, "name": "Pulicat, L.", "latitude": 13.250000, "longitude": 80.210000},
    {"id": 64, "name": "Rajapalayam", "latitude": 9.270000, "longitude": 77.360000},
    {"id": 65, "name": "Ramanathapuram", "latitude": 9.220000, "longitude": 78.520000},
    {"id": 66, "name": "Rameswaram", "latitude": 9.170000, "longitude": 79.220000},
    {"id": 67, "name": "Sankaranayinarkovil", "latitude": 9.010000, "longitude": 77.350000},
    {"id": 68, "name": "Sattur", "latitude": 9.210000, "longitude": 77.580000},
    {"id": 69, "name": "Satyamangalam", "latitude": 11.030000, "longitude": 77.170000},
    {"id": 70, "name": "Seven Pagodas", "latitude": 12.370000, "longitude": 80.140000},
    {"id": 71, "name": "Shencottah", "latitude": 8.590000, "longitude": 77.180000},
    {"id": 72, "name": "Shevaroy Hills", "latitude": 0.120000, "longitude": 78.030000},
    {"id": 73, "name": "St. Thomas Mount", "latitude": 0.130000, "longitude": 80.140000},
    {"id": 74, "name": "Tenkasi", "latitude": 8.580000, "longitude": 77.210000},
    {"id": 75, "name": "Tindivanam", "latitude": 12.140000, "longitude": 79.420000},
    {"id": 76, "name": "Tiruchendur", "latitude": 8.300000, "longitude": 78.110000},
    {"id": 77, "name": "Tiruchengodu", "latitude": 11.230000, "longitude": 77.560000},
    {"id": 78, "name": "Tirukkoyilur", "latitude": 11.580000, "longitude": 79.150000},
    {"id": 79, "name": "Tirumangalam", "latitude": 9.490000, "longitude": 79.010000},
    {"id": 80, "name": "Tiruppur", "latitude": 11.050000, "longitude": 77.200000},
    {"id": 81, "name": "Tiruvallur", "latitude": 13.090000, "longitude": 79.570000},
    {"id": 82, "name": "Tondi", "latitude": 9.450000, "longitude": 79.040000},
    {"id": 83, "name": "Tranquebar", "latitude": 11.010000, "longitude": 79.540000},
    {"id": 84, "name": "Turaiyur", "latitude": 11.090000, "longitude": 78.380000},
    {"id": 85, "name": "Udagamandalam", "latitude": 11.240000, "longitude": 76.440000},
    {"id": 86, "name": "Udamalpet", "latitude": 10.360000, "longitude": 77.170000},
    {"id": 87, "name": "Udiyarpalaiyam", "latitude": 11.110000, "longitude": 79.200000},
    {"id": 88, "name": "Uttangarai", "latitude": 12.160000, "longitude": 78.350000},
    {"id": 89, "name": "Vaniyambadi", "latitude": 12.410000, "longitude": 78.390000},
    {"id": 90, "name": "Villupuram", "latitude": 11.570000, "longitude": 79.320000},
    {"id": 91, "name": "Virudhunagar", "latitude": 9.350000, "longitude": 77.570000},
    {"id": 92, "name": "Vriddhachalam", "latitude": 11.320000, "longitude": 79.240000},
    {"id": 93, "name": "Wandiwash", "latitude": 12.300000, "longitude": 79.300000},
    {"id": 94, "name": "Yercaud", "latitude": 11.480000, "longitude": 78.130000},
    {"id": 95, "name": "Chennai", "latitude": 13.084622, "longitude": 80.248357},
    {"id": 96, "name": "Coimbatore", "latitude": 11.005547, "longitude": 76.966122},
    {"id": 97, "name": "Cuddalore", "latitude": 11.746289, "longitude": 79.764362},
    {"id": 98, "name": "Dindigul", "latitude": 10.362853, "longitude": 77.975827},
    {"id": 99, "name": "Karur", "latitude": 10.960277, "longitude": 78.076753},
    {"id": 100, "name": "Krishnapuram", "latitude": 12.869617, "longitude": 79.719469},
    {"id": 101, "name": "Kumbakonam", "latitude": 10.959789, "longitude": 79.377472},
    {"id": 102, "name": "Madurai", "latitude": 9.917347, "longitude": 78.119622},
    {"id": 103, "name": "Nagercoil", "latitude": 8.177313, "longitude": 77.434370},
    {"id": 104, "name": "Rajapalaiyam", "latitude": 9.451111, "longitude": 77.556121},
    {"id": 105, "name": "Salem", "latitude": 11.651165, "longitude": 78.158672},
    {"id": 106, "name": "Thanjavur", "latitude": 10.785233, "longitude": 79.139093},
    {"id": 107, "name": "Tiruchchirappalli", "latitude": 10.815499, "longitude": 78.696513},
    {"id": 108, "name": "Tirunelveli", "latitude": 8.725181, "longitude": 77.684519},
    {"id": 109, "name": "Tiruvannamalai", "latitude": 12.230204, "longitude": 79.072954},
    {"id": 110, "name": "Tuticorin", "latitude": 8.805038, "longitude": 78.151884},
    {"id": 111, "name": "Valparai", "latitude": 10.325163, "longitude": 76.955299},
    {"id": 112, "name": "Vellore", "latitude": 12.905769, "longitude": 79.137104}
]
