[{"id":1,"name":"Attur","latitude":11.59999999999999965,"longitude":37.29999999999999715},
{"id":2,"name":"Bodinayakkanur","latitude":10.0166666666666675,"longitude":2.283333333333333215},
{"id":3,"name":"Chennai","latitude":13.06666666666666643,"longitude":5.333333333333333037},
{"id":4,"name":"Chidambaram","latitude":11.40000000000000035,"longitude":25.31666666666666642},
{"id":5,"name":"Chingleput","latitude":12.69999999999999929,"longitude":43.3333333333333357},
{"id":6,"name":"Coimbatore","latitude":11.0,"longitude":1.283333333333333437},
{"id":7,"name":"Cuddalore","latitude":11.71666666666666679,"longitude":44.31666666666666999},
{"id":8,"name":"Devakottai","latitude":9.94999999999999928,"longitude":58.29999999999999716},
{"id":9,"name":"Dhanushkodi","latitude":9.166666666666666074,"longitude":11.31666666666666642},
{"id":10,"name":"Dharmapuri","latitude":12.13333333333333285,"longitude":9.30000000000000072},
{"id":11,"name":"Dindigul","latitude":10.36666666666666715,"longitude":23.30000000000000071},
{"id":12,"name":"Erode","latitude":11.33333333333333392,"longitude":21.283333333333335},
{"id":13,"name":"Kanchipuram","latitude":12.83333333333333393,"longitude":51.31666666666666999},
{"id":14,"name":"Karur","latitude":10.96666666666666678,"longitude":59.29999999999999716},
{"id":15,"name":"Kodaikanal","latitude":10.21666666666666678,"longitude":14.28333333333333321},
{"id":16,"name":"Krishnagiri","latitude":12.53333333333333321,"longitude":33.29999999999999715},
{"id":17,"name":"Kumbakonam","latitude":10.96666666666666678,"longitude":59.31666666666666999},
{"id":18,"name":"Madurai","latitude":9.96666666666666678,"longitude":59.29999999999999716},
{"id":19,"name":"Nagercoil","latitude":8.183333333333333571,"longitude":12.28333333333333321},
{"id":20,"name":"Namakkal","latitude":11.21666666666666678,"longitude":14.30000000000000071},
{"id":21,"name":"Perambalur","latitude":11.2333333333333325,"longitude":15.30000000000000071},
{"id":22,"name":"Pollachi","latitude":10.65000000000000035,"longitude":40.28333333333333143},
{"id":23,"name":"Ponneri","latitude":13.03333333333333321,"longitude":3.333333333333333037},
{"id":24,"name":"Salem","latitude":11.65000000000000035,"longitude":40.29999999999999715},
{"id":25,"name":"Tenkasi","latitude":8.966666666666666786,"longitude":59.28333333333333143},
{"id":26,"name":"Tiruchchirappalli","latitude":10.83333333333333392,"longitude":51.29999999999999716},
{"id":27,"name":"Yercaud","latitude":11.80000000000000071,"longitude":49.29999999999999716}]
